City_ID,City,Country,Date,Lat,Lng,Max Temp,Humidity,Cloudiness,Wind Speed,Current Description,Rain inches (last 3 hrs),Snow inches (last 3 hrs)
0,vernon,CA,2022-05-27 04:14:07,50.2581,-119.2691,65.23,58,100,5.39,overcast clouds,0.0,0
1,gondanglegi,ID,2022-05-27 04:14:07,-7.7479,112.0132,84.88,66,96,2.3,overcast clouds,0.0,0
2,shelburne,CA,2022-05-27 04:11:47,44.0787,-80.2041,65.75,86,100,12.71,overcast clouds,0.0,0
3,port lincoln,AU,2022-05-27 04:13:30,-34.7333,135.8667,60.37,53,67,12.59,broken clouds,0.0,0
4,rikitea,PF,2022-05-27 04:14:08,-23.1203,-134.9692,77.0,76,24,14.0,light rain,0.0,0
5,cherskiy,RU,2022-05-27 04:14:08,68.75,161.3,41.4,49,86,20.71,overcast clouds,0.0,0
6,ushuaia,AR,2022-05-27 04:11:23,-54.8,-68.3,33.46,86,100,26.46,light snow,0.0,0
7,georgetown,MY,2022-05-27 04:14:09,5.4112,100.3354,89.53,66,20,6.91,few clouds,0.0,0
8,lagoa,PT,2022-05-27 04:14:09,39.05,-27.9833,62.31,85,70,20.38,broken clouds,0.0,0
9,manjacaze,MZ,2022-05-27 04:09:21,-24.7117,33.8828,64.11,96,7,2.01,clear sky,0.0,0
10,busselton,AU,2022-05-27 04:14:10,-33.65,115.3333,67.62,47,0,9.33,clear sky,0.0,0
11,hermanus,ZA,2022-05-27 04:14:10,-34.4187,19.2345,55.8,87,10,9.82,clear sky,0.0,0
12,bilma,NE,2022-05-27 04:14:10,18.6853,12.9164,83.73,11,1,5.1,clear sky,0.0,0
13,hithadhoo,MV,2022-05-27 04:14:11,-0.6,73.0833,83.75,70,6,10.4,clear sky,0.0,0
14,olafsvik,IS,2022-05-27 04:14:11,64.8945,-23.7142,42.19,83,46,11.16,scattered clouds,0.0,0
15,hilo,US,2022-05-27 04:12:58,19.7297,-155.09,85.28,72,100,8.05,overcast clouds,0.0,0
16,dikson,RU,2022-05-27 04:14:11,73.5069,80.5464,29.26,76,5,3.42,clear sky,0.0,0
17,kidal,ML,2022-05-27 04:14:12,18.4411,1.4078,88.79,21,62,8.75,broken clouds,0.0,0
18,yamada,JP,2022-05-27 04:14:12,39.4667,141.95,59.54,99,100,14.47,light rain,0.0,0
19,mahebourg,MU,2022-05-27 04:14:13,-20.4081,57.7,74.25,70,2,4.63,clear sky,0.0,0
20,ribeira grande,PT,2022-05-27 04:14:13,38.5167,-28.7,64.47,77,80,18.81,broken clouds,0.0,0
21,tiksi,RU,2022-05-27 04:14:13,71.6872,128.8694,31.39,85,95,4.88,overcast clouds,0.0,0
22,ostersund,SE,2022-05-27 04:14:14,63.1792,14.6357,44.62,93,100,14.97,overcast clouds,0.0,0
23,torbay,CA,2022-05-27 04:14:14,47.6666,-52.7314,34.29,82,100,8.08,overcast clouds,0.0,0
24,ugoofaaru,MV,2022-05-27 04:14:15,5.6667,73.0,82.72,74,26,11.39,scattered clouds,0.0,0
25,touros,BR,2022-05-27 04:14:15,-5.1989,-35.4608,75.6,88,63,11.32,light rain,0.0,0
26,cidreira,BR,2022-05-27 04:14:16,-30.1811,-50.2056,64.42,95,100,9.98,overcast clouds,0.0,0
27,butaritari,KI,2022-05-27 04:14:16,3.0707,172.7902,81.54,68,84,4.72,broken clouds,0.0,0
28,kahului,US,2022-05-27 04:14:17,20.8947,-156.47,78.82,63,40,18.41,scattered clouds,0.0,0
29,portland,US,2022-05-27 04:14:02,45.5234,-122.6762,63.57,92,100,1.01,overcast clouds,0.0,0
30,presidencia roque saenz pena,AR,2022-05-27 04:14:18,-26.7852,-60.4388,56.21,95,100,3.98,overcast clouds,0.0,0
31,waipawa,NZ,2022-05-27 04:14:18,-41.4122,175.5153,50.59,72,76,2.77,broken clouds,0.0,0
32,albany,US,2022-05-27 04:10:31,42.6001,-73.9662,65.73,77,99,5.91,overcast clouds,0.0,0
33,pevek,RU,2022-05-27 04:14:19,69.7008,170.3133,31.75,78,100,12.26,overcast clouds,0.0,0
34,whitehaven,GB,2022-05-27 04:14:19,54.549,-3.5841,49.66,82,72,4.0,broken clouds,0.0,0
35,lebu,CL,2022-05-27 04:14:20,-37.6167,-73.65,43.12,70,100,12.3,overcast clouds,0.0,0
36,bluff,NZ,2022-05-27 04:14:20,-46.6,168.3333,49.8,73,1,3.58,clear sky,0.0,0
37,takapau,NZ,2022-05-27 04:14:21,-40.0333,176.35,49.73,80,98,1.74,overcast clouds,0.0,0
38,cape town,ZA,2022-05-27 04:11:42,-33.9258,18.4232,60.39,87,4,3.44,fog,0.0,0
39,san cristobal,VE,2022-05-27 04:14:21,7.7669,-72.225,68.18,96,100,2.91,overcast clouds,0.0,0
40,shingu,JP,2022-05-27 04:14:22,33.7333,135.9833,79.11,56,100,2.48,overcast clouds,0.0,0
41,ilulissat,GL,2022-05-27 04:14:22,69.2167,-51.1,26.62,93,100,5.75,light snow,0.0,0
42,moose factory,CA,2022-05-27 04:14:22,51.2585,-80.6094,44.13,91,98,7.56,overcast clouds,0.0,0
43,kaitangata,NZ,2022-05-27 04:14:23,-46.2817,169.8464,48.36,67,1,0.69,clear sky,0.0,0
44,ukiah,US,2022-05-27 04:11:32,39.1502,-123.2078,66.09,68,0,5.75,clear sky,0.0,0
45,pokaran,IN,2022-05-27 04:14:23,26.9167,71.9167,89.46,49,0,23.13,clear sky,0.0,0
46,vaini,TO,2022-05-27 04:14:24,-21.2,-175.2,78.96,89,75,5.75,broken clouds,0.0,0
47,mataura,NZ,2022-05-27 04:14:24,-46.1927,168.8643,49.48,77,2,1.81,clear sky,0.0,0
48,urubicha,BO,2022-05-27 04:14:24,-15.3833,-62.95,72.46,74,69,0.43,broken clouds,0.0,0
49,atuona,PF,2022-05-27 04:14:25,-9.8,-139.0333,77.94,79,33,15.37,light rain,0.0,0
50,hamilton,US,2022-05-27 04:12:34,39.1834,-84.5333,65.32,95,75,10.36,broken clouds,0.0,0
51,saint george,US,2022-05-27 04:10:51,37.1041,-113.5841,90.19,9,0,13.8,clear sky,0.0,0
52,mezen,RU,2022-05-27 04:14:25,65.8522,44.24,45.61,88,100,15.43,overcast clouds,0.0,0
53,bredasdorp,ZA,2022-05-27 04:14:26,-34.5322,20.0403,51.37,91,24,3.49,few clouds,0.0,0
54,yumen,CN,2022-05-27 04:14:26,40.2833,97.2,81.7,15,100,14.23,overcast clouds,0.0,0
55,tasiilaq,GL,2022-05-27 04:14:27,65.6145,-37.6368,32.16,66,14,3.4,few clouds,0.0,0
56,lompoc,US,2022-05-27 04:09:54,34.6391,-120.4579,60.69,74,100,5.75,overcast clouds,0.0,0
57,punta arenas,CL,2022-05-27 04:14:28,-53.15,-70.9167,37.51,65,20,23.02,few clouds,0.0,0
58,carnarvon,AU,2022-05-27 04:14:28,-24.8667,113.6333,73.78,55,100,5.77,overcast clouds,0.0,0
59,puerto ayora,EC,2022-05-27 04:14:29,-0.7393,-90.3518,71.55,88,22,3.0,few clouds,0.0,0
60,kirakira,SB,2022-05-27 04:14:29,-10.4544,161.9205,78.64,89,100,7.27,overcast clouds,0.0,0
61,norman wells,CA,2022-05-27 04:14:29,65.282,-126.8329,54.37,58,73,11.27,broken clouds,0.0,0
62,xichang,CN,2022-05-27 04:14:30,27.8964,102.2634,67.73,81,100,2.26,overcast clouds,0.0,0
63,rundu,NA,2022-05-27 04:14:30,-17.9333,19.7667,51.73,50,0,3.13,clear sky,0.0,0
64,yellowknife,CA,2022-05-27 04:14:30,62.456,-114.3525,55.56,51,39,5.01,scattered clouds,0.0,0
65,acapulco,MX,2022-05-27 04:12:24,16.8634,-99.8901,82.22,78,75,2.3,broken clouds,0.0,0
66,upernavik,GL,2022-05-27 04:14:31,72.7868,-56.1549,22.06,89,96,14.58,light snow,0.0,0
67,husavik,IS,2022-05-27 04:14:31,66.0449,-17.3389,40.15,97,100,7.61,overcast clouds,0.0,0
68,cairo,EG,2022-05-27 04:12:13,30.0626,31.2497,72.36,78,0,3.44,clear sky,0.0,0
69,alvand,IR,2022-05-27 04:14:32,36.3187,49.1678,51.06,44,0,5.73,clear sky,0.0,0
70,abu dhabi,AE,2022-05-27 04:11:01,24.4667,54.3667,89.71,53,0,5.75,clear sky,0.0,0
71,belaya gora,RU,2022-05-27 04:12:18,68.5333,146.4167,45.43,40,86,6.62,overcast clouds,0.0,0
72,avarua,CK,2022-05-27 04:14:33,-21.2078,-159.775,78.85,78,75,2.3,broken clouds,0.0,0
73,juterbog,DE,2022-05-27 04:14:33,51.9833,13.0833,58.17,92,100,1.01,moderate rain,0.0,0
74,sorland,NO,2022-05-27 04:14:34,67.667,12.6934,46.26,89,85,3.76,overcast clouds,0.0,0
75,kodiak,US,2022-05-27 04:14:34,57.79,-152.4072,58.51,51,0,4.61,clear sky,0.0,0
76,nikolskoye,RU,2022-05-27 04:14:35,59.7035,30.7861,50.72,93,100,4.79,overcast clouds,0.0,0
77,plettenberg bay,ZA,2022-05-27 04:14:35,-34.0527,23.3716,56.43,86,5,3.2,clear sky,0.0,0
78,binzhou,CN,2022-05-27 04:14:35,37.3667,118.0167,94.35,10,0,9.48,clear sky,0.0,0
79,east london,ZA,2022-05-27 04:14:36,-33.0153,27.9116,58.42,84,13,3.69,few clouds,0.0,0
80,fare,PF,2022-05-27 04:14:36,-16.7,-151.0167,80.51,72,0,14.81,light rain,0.0,0
81,barrow,US,2022-05-27 04:14:37,71.2906,-156.7887,33.82,86,100,18.41,overcast clouds,0.0,0
82,bethel,US,2022-05-27 04:14:37,41.3712,-73.414,64.63,82,100,5.75,overcast clouds,0.0,0
83,zvishavane,ZW,2022-05-27 04:14:37,-20.3267,30.0665,53.17,69,0,3.58,clear sky,0.0,0
84,yar-sale,RU,2022-05-27 04:14:38,66.8333,70.8333,54.97,49,100,19.22,overcast clouds,0.0,0
85,goba,ET,2022-05-27 04:14:38,7.0167,39.9833,54.73,72,11,3.47,few clouds,0.0,0
86,redmond,US,2022-05-27 04:11:38,47.674,-122.1215,62.71,87,100,3.0,light rain,0.0,0
87,shar,KZ,2022-05-27 04:14:39,49.5886,81.0453,85.91,26,0,6.4,clear sky,0.0,0
88,arraial do cabo,BR,2022-05-27 04:14:39,-22.9661,-42.0278,71.29,76,0,19.35,clear sky,0.0,0
89,pemangkat,ID,2022-05-27 04:14:39,1.1667,108.9667,85.68,70,57,7.94,broken clouds,0.0,0
90,cayenne,GF,2022-05-27 04:13:43,4.9333,-52.3333,76.08,1,100,2.3,overcast clouds,0.0,0
91,rila,BG,2022-05-27 04:14:40,42.1333,23.1333,61.03,78,57,1.52,broken clouds,0.0,0
92,hobart,AU,2022-05-27 04:14:40,-42.8794,147.3294,59.25,55,75,12.66,broken clouds,0.0,0
93,nanortalik,GL,2022-05-27 04:14:41,60.1432,-45.2371,34.36,93,100,4.16,overcast clouds,0.0,0
94,palmerston,AU,2022-05-27 04:11:48,-12.486,130.9833,88.9,36,0,16.11,clear sky,0.0,0
95,geraldton,AU,2022-05-27 04:14:18,-28.7667,114.6,77.41,47,3,8.05,clear sky,0.0,0
96,longyearbyen,SJ,2022-05-27 04:14:41,78.2186,15.6401,40.84,81,0,4.61,clear sky,0.0,0
97,ayagoz,KZ,2022-05-27 04:14:42,47.9714,80.4392,81.55,34,4,7.85,clear sky,0.0,0
98,inhambane,MZ,2022-05-27 04:14:42,-23.865,35.3833,62.58,100,20,3.44,mist,0.0,0
99,koslan,RU,2022-05-27 04:14:43,63.4564,48.8989,42.64,84,96,8.97,overcast clouds,0.0,0
100,severo-kurilsk,RU,2022-05-27 04:14:43,50.6789,156.125,44.22,83,21,4.0,few clouds,0.0,0
101,belousovka,KZ,2022-05-27 04:14:43,50.1339,82.5239,77.85,44,0,4.47,clear sky,0.0,0
102,san ramon de la nueva oran,AR,2022-05-27 04:10:38,-23.1322,-64.326,58.42,83,100,0.96,overcast clouds,0.0,0
103,port blair,IN,2022-05-27 04:14:44,11.6667,92.75,83.86,77,72,16.73,broken clouds,0.0,0
104,talcahuano,CL,2022-05-27 04:14:44,-36.7167,-73.1167,40.68,81,0,5.75,clear sky,0.0,0
105,thompson,CA,2022-05-27 04:14:44,55.7435,-97.8558,33.96,100,100,6.91,light intensity drizzle,0.0,0
106,grand gaube,MU,2022-05-27 04:14:45,-20.0064,57.6608,74.37,68,1,1.99,clear sky,0.0,0
107,new norfolk,AU,2022-05-27 04:14:45,-42.7826,147.0587,58.91,71,97,1.01,overcast clouds,0.0,0
108,khatanga,RU,2022-05-27 04:14:46,71.9667,102.5,35.85,62,100,7.2,overcast clouds,0.0,0
109,chuy,UY,2022-05-27 04:14:46,-33.6971,-53.4616,57.79,96,99,3.13,overcast clouds,0.0,0
110,pisco,PE,2022-05-27 04:14:47,-13.7,-76.2167,62.65,82,100,3.44,mist,0.0,0
111,buraydah,SA,2022-05-27 04:14:47,26.326,43.975,81.46,17,5,21.43,clear sky,0.0,0
112,kapaa,US,2022-05-27 04:14:47,22.0752,-159.319,78.78,72,40,9.22,scattered clouds,0.0,0
113,katsuura,JP,2022-05-27 04:14:48,35.1333,140.3,68.72,96,100,26.35,overcast clouds,0.0,0
114,klaksvik,FO,2022-05-27 04:14:48,62.2266,-6.589,47.32,78,7,13.0,clear sky,0.0,0
115,vila velha,BR,2022-05-27 04:14:48,-20.3297,-40.2925,63.95,93,0,0.0,clear sky,0.0,0
116,cairns,AU,2022-05-27 04:14:49,-16.9167,145.7667,85.06,62,40,8.05,scattered clouds,0.0,0
117,russell,US,2022-05-27 04:13:16,32.3502,-85.1999,69.4,94,100,0.0,overcast clouds,0.0,0
118,puro,PH,2022-05-27 04:14:49,12.4841,123.3827,86.81,62,83,0.09,broken clouds,0.0,0
119,faanui,PF,2022-05-27 04:14:49,-16.4833,-151.75,80.92,66,3,13.87,clear sky,0.0,0
120,isangel,VU,2022-05-27 04:14:50,-19.55,169.2667,80.37,71,14,4.36,few clouds,0.0,0
121,saint-augustin,CA,2022-05-27 04:14:50,51.226,-58.6502,42.71,64,100,5.41,overcast clouds,0.0,0
122,linhares,BR,2022-05-27 04:14:51,-19.3911,-40.0722,63.01,86,4,4.07,clear sky,0.0,0
123,vestmannaeyjar,IS,2022-05-27 04:14:51,63.4427,-20.2734,45.82,74,7,13.02,clear sky,0.0,0
124,soyo,AO,2022-05-27 04:14:52,-6.1349,12.3689,73.11,87,79,6.73,broken clouds,0.0,0
125,sinegorye,RU,2022-05-27 04:14:52,62.0788,150.477,40.62,93,100,6.46,light rain,0.0,0
126,castro,BR,2022-05-27 04:14:53,-24.7911,-50.0119,54.21,85,96,2.28,overcast clouds,0.0,0
127,bathsheba,BB,2022-05-27 04:14:53,13.2167,-59.5167,81.21,78,40,17.27,scattered clouds,0.0,0
128,vila franca do campo,PT,2022-05-27 04:14:53,37.7167,-25.4333,61.21,85,71,4.32,broken clouds,0.0,0
129,saint anthony,US,2022-05-27 04:14:54,45.0205,-93.218,54.25,86,0,4.61,clear sky,0.0,0
130,pitimbu,BR,2022-05-27 04:14:54,-7.4706,-34.8086,73.99,84,28,13.06,scattered clouds,0.0,0
131,constitucion,CL,2022-05-27 04:14:55,-35.3333,-72.4167,49.48,63,100,4.54,overcast clouds,0.0,0
132,beira,MZ,2022-05-27 04:14:55,-19.8436,34.8389,66.29,100,20,4.61,mist,0.0,0
133,kruisfontein,ZA,2022-05-27 04:14:55,-34.0033,24.7314,51.17,90,5,4.54,clear sky,0.0,0
134,narsaq,GL,2022-05-27 04:14:56,60.9167,-46.05,41.22,97,100,4.85,light rain,0.0,0
135,esperance,AU,2022-05-27 04:14:56,-33.8667,121.9,65.41,50,8,2.84,clear sky,0.0,0
136,tuktoyaktuk,CA,2022-05-27 04:14:57,69.4541,-133.0374,33.66,94,100,8.93,overcast clouds,0.0,0
137,leshan,CN,2022-05-27 04:14:57,29.5623,103.7639,68.36,93,99,3.11,overcast clouds,0.0,0
138,cabo san lucas,MX,2022-05-27 04:11:12,22.8909,-109.9124,79.11,49,0,4.0,clear sky,0.0,0
139,brae,GB,2022-05-27 04:14:58,60.3964,-1.353,46.51,79,39,18.97,light rain,0.0,0
140,jamestown,US,2022-05-27 04:10:01,42.097,-79.2353,67.51,91,100,8.05,light rain,0.0,0
141,guerrero negro,MX,2022-05-27 04:14:58,27.9769,-114.0611,62.37,85,0,13.4,clear sky,0.0,0
142,sechura,PE,2022-05-27 04:14:59,-5.5569,-80.8222,65.97,79,7,13.96,clear sky,0.0,0
143,mount isa,AU,2022-05-27 04:14:59,-20.7333,139.5,80.37,21,0,8.05,clear sky,0.0,0
144,terrak,NO,2022-05-27 04:14:59,65.087,12.3715,46.27,96,100,4.59,overcast clouds,0.0,0
145,fortuna,US,2022-05-27 04:15:00,40.5982,-124.1573,53.94,93,100,11.5,overcast clouds,0.0,0
146,chokurdakh,RU,2022-05-27 04:15:00,70.6333,147.9167,33.48,52,30,9.26,scattered clouds,0.0,0
147,altay,CN,2022-05-27 04:15:01,47.8667,88.1167,72.7,57,76,5.48,broken clouds,0.0,0
148,gizo,SB,2022-05-27 04:15:01,-8.103,156.8419,84.29,70,73,7.78,broken clouds,0.0,0
149,kokkola,FI,2022-05-27 04:15:02,63.8385,23.1307,48.36,93,75,2.3,broken clouds,0.0,0
150,ponta do sol,PT,2022-05-27 04:15:02,32.6667,-17.1,65.03,72,94,2.01,overcast clouds,0.0,0
151,polson,US,2022-05-27 04:15:03,47.6936,-114.1632,60.22,68,100,3.91,overcast clouds,0.0,0
152,souillac,MU,2022-05-27 04:15:04,-20.5167,57.5167,68.38,88,20,4.61,few clouds,0.0,0
153,kurya,RU,2022-05-27 04:15:05,51.6003,82.2888,78.82,50,0,4.34,clear sky,0.0,0
154,najran,SA,2022-05-27 04:15:06,17.4924,44.1277,80.19,14,0,1.66,clear sky,0.0,0
155,urengoy,RU,2022-05-27 04:15:06,65.9667,78.3667,57.58,31,20,12.46,few clouds,0.0,0
156,olinda,BR,2022-05-27 04:15:07,-8.0089,-34.8553,80.33,78,40,9.22,scattered clouds,0.0,0
157,miles city,US,2022-05-27 04:14:10,46.4083,-105.8406,65.37,48,0,6.91,clear sky,0.0,0
158,saint-jovite,CA,2022-05-27 04:15:07,46.1186,-74.5966,62.44,99,100,0.0,overcast clouds,0.0,0
159,beloha,MG,2022-05-27 04:15:08,-25.1667,45.05,65.19,88,13,2.51,few clouds,0.0,0
160,mount gambier,AU,2022-05-27 04:10:59,-37.8333,140.7667,60.87,58,98,7.76,overcast clouds,0.0,0
161,ocala,US,2022-05-27 04:10:34,29.1872,-82.1401,77.99,67,0,5.75,clear sky,0.0,0
162,helong,CN,2022-05-27 04:15:09,42.5397,128.9972,52.12,84,100,1.32,light rain,0.0,0
163,saskylakh,RU,2022-05-27 04:15:09,71.9167,114.0833,32.49,92,100,10.36,overcast clouds,0.0,0
164,samfya,ZM,2022-05-27 04:15:09,-11.3649,29.5565,56.1,74,0,5.14,clear sky,0.0,0
165,moree,AU,2022-05-27 04:15:10,-29.4667,149.85,69.96,50,5,1.54,clear sky,0.0,0
166,kalmunai,LK,2022-05-27 04:15:10,7.4167,81.8167,85.28,64,42,2.3,scattered clouds,0.0,0
167,lorengau,PG,2022-05-27 04:15:11,-2.0226,147.2712,83.07,74,90,7.43,overcast clouds,0.0,0
168,grindavik,IS,2022-05-27 04:15:11,63.8424,-22.4338,42.75,93,0,12.66,clear sky,0.0,0
169,requena,ES,2022-05-27 04:15:11,39.4883,-1.1004,53.53,62,0,3.62,clear sky,0.0,0
170,port elizabeth,ZA,2022-05-27 04:15:12,-33.918,25.5701,53.31,94,0,4.61,clear sky,0.0,0
171,giyani,ZA,2022-05-27 04:15:12,-23.3025,30.7187,64.8,85,99,5.32,overcast clouds,0.0,0
172,omboue,GA,2022-05-27 04:15:13,-1.5746,9.2618,73.89,90,99,7.36,overcast clouds,0.0,0
173,nemuro,JP,2022-05-27 04:15:13,43.3236,145.575,52.54,87,92,17.22,heavy intensity rain,0.0,0
174,bambous virieux,MU,2022-05-27 04:15:14,-20.3428,57.7575,74.21,88,20,4.61,few clouds,0.0,0
175,shumskiy,RU,2022-05-27 04:15:14,54.8318,99.1328,61.97,32,54,5.14,broken clouds,0.0,0
176,carballo,ES,2022-05-27 04:15:14,43.213,-8.691,58.77,93,74,4.05,broken clouds,0.0,0
177,iqaluit,CA,2022-05-27 04:15:15,63.7506,-68.5145,20.93,79,100,8.05,overcast clouds,0.0,0
178,vostok,RU,2022-05-27 04:15:15,46.4856,135.8833,67.91,40,100,5.35,overcast clouds,0.0,0
179,qaanaaq,GL,2022-05-27 04:15:16,77.484,-69.3632,27.41,73,22,9.8,few clouds,0.0,0
180,hasaki,JP,2022-05-27 04:15:16,35.7333,140.8333,70.29,95,100,26.96,overcast clouds,0.0,0
181,shibetsu,JP,2022-05-27 04:15:16,43.659,145.132,66.9,68,75,13.8,broken clouds,0.0,0
182,pedasi,PA,2022-05-27 04:15:17,7.5333,-80.0333,79.07,86,100,6.49,overcast clouds,0.0,0
183,trelew,AR,2022-05-27 04:15:17,-43.249,-65.3051,38.37,65,3,8.68,clear sky,0.0,0
184,harrow,GB,2022-05-27 04:13:18,51.5714,-0.3337,56.97,92,40,8.05,scattered clouds,0.0,0
185,rexburg,US,2022-05-27 04:12:56,43.826,-111.7897,69.78,37,100,3.44,overcast clouds,0.0,0
186,alofi,NU,2022-05-27 04:15:18,-19.0595,-169.9187,80.49,78,75,9.22,broken clouds,0.0,0
187,varnavino,RU,2022-05-27 04:15:18,57.4035,45.0916,47.23,91,100,7.9,light rain,0.0,0
188,port alfred,ZA,2022-05-27 04:15:19,-33.5906,26.891,58.24,81,16,2.77,few clouds,0.0,0
189,nome,US,2022-05-27 04:15:19,64.5011,-165.4064,37.47,87,100,12.66,overcast clouds,0.0,0
190,sitka,US,2022-05-27 04:15:19,57.0531,-135.33,58.89,55,0,12.66,clear sky,0.0,0
191,taltal,CL,2022-05-27 04:15:20,-25.4,-70.4833,60.01,75,95,3.69,overcast clouds,0.0,0
192,airai,TL,2022-05-27 04:15:20,-8.9266,125.4092,73.0,55,93,3.4,overcast clouds,0.0,0
193,saldanha,ZA,2022-05-27 04:15:20,-33.0117,17.9442,51.85,83,0,6.55,clear sky,0.0,0
194,laguna,US,2022-05-27 04:15:21,38.421,-121.4238,68.11,73,0,11.5,clear sky,0.0,0
195,sabzevar,IR,2022-05-27 04:15:21,36.2126,57.6819,67.28,52,20,9.22,few clouds,0.0,0
196,albania,AL,2022-05-27 04:15:22,41.0,20.0,67.95,56,79,4.56,broken clouds,0.0,0
197,kralendijk,BQ,2022-05-27 04:15:22,12.15,-68.2667,82.38,78,40,14.97,scattered clouds,0.0,0
198,saint-philippe,RE,2022-05-27 04:15:23,-21.3585,55.7679,72.99,64,1,1.66,clear sky,0.0,0
199,khotyn,UA,2022-05-27 04:15:23,48.4833,26.5,57.99,75,56,3.74,broken clouds,0.0,0
200,nyurba,RU,2022-05-27 04:15:23,63.2842,118.3319,47.26,39,94,10.0,overcast clouds,0.0,0
201,vaitape,PF,2022-05-27 04:15:24,-16.5167,-151.75,80.92,66,3,13.67,clear sky,0.0,0
202,bukama,CD,2022-05-27 04:15:24,-9.2,25.85,60.78,58,20,3.36,few clouds,0.0,0
203,amapa,BR,2022-05-27 04:15:24,1.0,-52.0,70.66,100,100,1.12,overcast clouds,0.0,0
204,palmer,US,2022-05-27 04:15:25,42.1584,-72.3287,63.21,83,100,11.5,overcast clouds,0.0,0
205,carutapera,BR,2022-05-27 04:15:25,-1.195,-46.02,74.26,94,11,4.38,few clouds,0.0,0
206,mullovka,RU,2022-05-27 04:15:26,54.2,49.4,55.22,82,100,14.03,overcast clouds,0.0,0
207,bengkulu,ID,2022-05-27 04:15:26,-3.8004,102.2655,84.7,64,47,6.35,scattered clouds,0.0,0
208,praia da vitoria,PT,2022-05-27 04:15:26,38.7333,-27.0667,63.75,88,75,11.27,broken clouds,0.0,0
209,charlestown,AU,2022-05-27 04:12:57,-32.95,151.6667,73.02,68,14,1.99,few clouds,0.0,0
210,rawson,AR,2022-05-27 04:10:53,-43.3002,-65.1023,40.91,68,8,10.45,clear sky,0.0,0
211,bushehr,IR,2022-05-27 04:15:27,28.9684,50.8385,80.69,54,0,18.41,clear sky,0.0,0
212,wanning,CN,2022-05-27 04:15:27,18.8003,110.3967,88.12,66,96,9.53,overcast clouds,0.0,0
213,acacoyagua,MX,2022-05-27 04:15:28,15.35,-92.65,74.48,93,100,1.77,overcast clouds,0.0,0
214,ancud,CL,2022-05-27 04:15:28,-41.8697,-73.8203,41.74,85,6,3.44,clear sky,0.0,0
215,copiapo,CL,2022-05-27 04:15:29,-27.3667,-70.3333,53.29,58,0,1.97,clear sky,0.0,0
216,visnes,NO,2022-05-27 04:15:29,59.3556,5.2242,47.21,71,20,17.27,few clouds,0.0,0
217,broome,US,2022-05-27 04:15:29,42.2506,-75.833,68.45,80,100,9.22,overcast clouds,0.0,0
218,houma,US,2022-05-27 04:13:10,29.5958,-90.7195,73.0,77,0,4.61,clear sky,0.0,0
219,chenghai,CN,2022-05-27 04:15:30,23.4632,116.768,75.11,100,100,8.95,overcast clouds,0.0,0
220,tabas,IR,2022-05-27 04:15:30,33.5959,56.9244,78.69,28,0,7.29,clear sky,0.0,0
221,bolama,GW,2022-05-27 04:15:31,11.5833,-15.4667,79.54,82,91,8.9,light rain,0.0,0
222,port hardy,CA,2022-05-27 04:15:31,50.6996,-127.4199,50.18,100,100,2.3,light rain,0.0,0
223,imbituba,BR,2022-05-27 04:11:05,-28.24,-48.6703,67.86,99,100,2.98,overcast clouds,0.0,0
224,westport,US,2022-05-27 04:15:11,41.1415,-73.3579,65.3,87,100,3.0,overcast clouds,0.0,0
225,sao jose da coroa grande,BR,2022-05-27 04:15:31,-8.8978,-35.1478,76.08,86,66,12.97,broken clouds,0.0,0
226,yasnyy,RU,2022-05-27 04:15:32,51.0333,59.8742,54.81,54,39,7.4,scattered clouds,0.0,0
227,marsh harbour,BS,2022-05-27 04:15:32,26.5412,-77.0636,77.65,73,0,12.48,clear sky,0.0,0
228,sao filipe,CV,2022-05-27 04:15:33,14.8961,-24.4956,72.21,79,38,7.54,scattered clouds,0.0,0
229,sovetskaya gavan,RU,2022-05-27 04:12:17,48.9723,140.2878,55.17,74,100,4.74,overcast clouds,0.0,0
230,fuyang,CN,2022-05-27 04:15:33,32.9,115.8167,88.57,23,100,6.29,light rain,0.0,0
231,the valley,AI,2022-05-27 04:14:49,18.217,-63.0578,79.11,76,17,16.91,few clouds,0.0,0
232,shenjiamen,CN,2022-05-27 04:15:34,29.9576,122.298,70.0,76,100,5.48,overcast clouds,0.0,0
233,kununurra,AU,2022-05-27 04:15:34,-15.7667,128.7333,91.38,19,8,10.36,clear sky,0.0,0
234,jamui,IN,2022-05-27 04:15:34,24.9167,86.2167,97.75,22,57,2.86,broken clouds,0.0,0
235,half moon bay,US,2022-05-27 04:15:35,37.4636,-122.4286,63.25,83,100,11.5,overcast clouds,0.0,0
236,rawlins,US,2022-05-27 04:12:58,41.7911,-107.2387,60.69,29,0,5.75,clear sky,0.0,0
237,venezuela,VE,2022-05-27 04:15:02,8.0,-66.0,80.24,72,100,13.89,light rain,0.0,0
238,dhidhdhoo,MV,2022-05-27 04:15:35,6.8833,73.1,82.33,77,48,11.83,scattered clouds,0.0,0
239,tanete,ID,2022-05-27 04:15:36,-3.9443,119.7848,73.08,98,100,8.08,overcast clouds,0.0,0
240,mandalgovi,MN,2022-05-27 04:15:36,45.7625,106.2708,67.1,34,91,21.9,overcast clouds,0.0,0
241,auki,SB,2022-05-27 04:15:36,-8.7676,160.7034,79.48,84,95,5.97,moderate rain,0.0,0
242,grand forks,US,2022-05-27 04:11:45,47.9417,-97.4337,62.33,55,0,10.36,clear sky,0.0,0
243,clyde river,CA,2022-05-27 04:15:37,70.4692,-68.5914,17.83,73,100,16.11,overcast clouds,0.0,0
244,gawler,AU,2022-05-27 04:15:37,-34.6,138.7333,64.47,76,31,8.05,scattered clouds,0.0,0
245,fortuna foothills,US,2022-05-27 04:11:28,32.6578,-114.4119,89.69,22,0,8.05,clear sky,0.0,0
246,aklavik,CA,2022-05-27 04:15:37,68.2191,-135.0107,42.82,91,100,13.04,light rain,0.0,0
247,coahuayana,MX,2022-05-27 04:15:38,18.7333,-103.6833,74.97,88,41,1.95,scattered clouds,0.0,0
248,sampit,ID,2022-05-27 04:15:38,-2.5333,112.95,77.36,88,100,1.72,overcast clouds,0.0,0
249,itumba,TZ,2022-05-27 04:15:39,-9.4,33.1833,56.57,97,6,3.78,clear sky,0.0,0
250,victoria,HK,2022-05-27 04:15:02,22.2855,114.1577,83.32,90,100,5.01,overcast clouds,0.0,0
251,revda,RU,2022-05-27 04:15:39,56.801,59.9303,51.3,55,55,11.32,broken clouds,0.0,0
252,preobrazheniye,RU,2022-05-27 04:15:39,42.9019,133.9064,54.39,81,100,9.33,moderate rain,0.0,0
253,lata,PT,2022-05-27 04:15:40,40.1629,-8.3327,59.72,59,9,4.99,clear sky,0.0,0
254,maldonado,UY,2022-05-27 04:12:00,-34.6667,-54.9167,55.22,82,68,2.35,broken clouds,0.0,0
255,boende,CD,2022-05-27 04:15:40,-0.2167,20.8667,68.49,98,71,0.81,broken clouds,0.0,0
256,boyolangu,ID,2022-05-27 04:15:41,-8.1181,111.8935,84.85,65,94,4.54,overcast clouds,0.0,0
257,belmonte,BR,2022-05-27 04:15:41,-15.8631,-38.8828,71.6,74,56,6.64,broken clouds,0.0,0
258,frunze,UA,2022-05-27 04:15:42,48.6686,38.7544,56.48,87,5,14.61,clear sky,0.0,0
259,oranjemund,NA,2022-05-27 04:15:42,-28.55,16.4333,53.2,91,4,1.68,clear sky,0.0,0
260,nhulunbuy,AU,2022-05-27 04:15:43,-12.2333,136.7667,88.41,55,40,16.11,scattered clouds,0.0,0
261,staraya poltavka,RU,2022-05-27 04:15:43,50.4772,46.4814,58.86,72,99,19.64,overcast clouds,0.0,0
262,nalut,LY,2022-05-27 04:15:44,30.3333,10.85,76.96,29,39,11.34,scattered clouds,0.0,0
263,osa,RU,2022-05-27 04:12:14,57.2829,55.4567,51.6,66,53,8.57,broken clouds,0.0,0
264,san onofre,CO,2022-05-27 04:15:45,9.7359,-75.5263,77.76,89,100,2.59,overcast clouds,0.0,0
265,rovaniemi,FI,2022-05-27 04:15:45,66.5,25.7167,47.61,93,100,8.05,light rain,0.0,0
266,hofn,IS,2022-05-27 04:15:46,64.2539,-15.2082,44.33,72,55,15.73,broken clouds,0.0,0
267,shitanjing,CN,2022-05-27 04:15:46,39.2342,106.3439,78.44,9,100,4.36,overcast clouds,0.0,0
268,saint-francois,FR,2022-05-27 04:15:47,46.4154,3.9054,53.04,94,100,3.44,overcast clouds,0.0,0
269,flin flon,CA,2022-05-27 04:15:47,54.7682,-101.865,46.65,66,22,10.67,few clouds,0.0,0
270,yuksekova,TR,2022-05-27 04:15:48,37.5736,44.2872,46.15,81,0,0.0,clear sky,0.0,0
271,padang,ID,2022-05-27 04:10:49,-0.9492,100.3543,87.85,65,81,4.83,broken clouds,0.0,0
272,huamuxtitlan,MX,2022-05-27 04:15:48,17.8167,-98.5667,76.33,53,69,4.36,broken clouds,0.0,0
273,bambanglipuro,ID,2022-05-27 04:15:49,-7.95,110.2833,82.13,72,85,1.52,overcast clouds,0.0,0
274,fairbanks,US,2022-05-27 04:11:29,64.8378,-147.7164,69.76,34,40,16.11,scattered clouds,0.0,0
275,turukhansk,RU,2022-05-27 04:15:49,65.8167,87.9833,55.36,30,33,13.02,scattered clouds,0.0,0
276,lerwick,GB,2022-05-27 04:15:50,60.1545,-1.1494,46.4,79,20,19.26,light rain,0.0,0
277,kushmurun,KZ,2022-05-27 04:15:50,52.4503,64.6311,55.85,60,81,15.41,broken clouds,0.0,0
278,itarema,BR,2022-05-27 04:15:50,-2.9248,-39.9167,74.62,88,1,8.25,clear sky,0.0,0
279,pangnirtung,CA,2022-05-27 04:15:51,66.1451,-65.7125,7.61,79,89,7.76,overcast clouds,0.0,0
280,nayudupeta,IN,2022-05-27 04:15:51,13.9,79.9,90.48,33,10,15.41,clear sky,0.0,0
281,sosnovskoye,RU,2022-05-27 04:15:52,55.8052,43.167,49.3,97,100,5.59,overcast clouds,0.0,0
282,daru,PG,2022-05-27 04:15:52,-9.0763,143.2092,82.8,66,100,11.18,overcast clouds,0.0,0
283,nizhnevartovsk,RU,2022-05-27 04:13:35,60.9344,76.5531,66.22,39,0,15.99,clear sky,0.0,0
284,kindersley,CA,2022-05-27 04:15:53,51.4668,-109.1682,55.42,41,40,9.22,scattered clouds,0.0,0
285,mar del plata,AR,2022-05-27 04:15:53,-38.0023,-57.5575,48.09,71,0,4.0,clear sky,0.0,0
286,porangatu,BR,2022-05-27 04:13:06,-13.4408,-49.1486,70.23,55,67,4.05,broken clouds,0.0,0
287,henties bay,NA,2022-05-27 04:15:54,-22.116,14.2845,57.31,89,0,4.7,clear sky,0.0,0
288,tornio,FI,2022-05-27 04:15:54,65.8481,24.1466,48.22,67,100,9.44,overcast clouds,0.0,0
289,laguna de perlas,NI,2022-05-27 04:15:55,12.3429,-83.6712,79.09,88,50,6.96,scattered clouds,0.0,0
290,sola,VU,2022-05-27 04:15:55,-13.8833,167.55,81.55,73,45,13.58,scattered clouds,0.0,0
291,victor harbor,AU,2022-05-27 04:15:56,-35.5667,138.6167,60.12,66,46,7.99,scattered clouds,0.0,0
292,bayir,TR,2022-05-27 04:15:56,37.2687,28.2167,57.72,52,2,4.34,clear sky,0.0,0
293,avera,US,2022-05-27 04:15:56,33.194,-82.5271,69.85,98,100,7.65,overcast clouds,0.0,0
294,san quintin,MX,2022-05-27 04:15:57,30.4833,-115.95,60.46,90,0,8.14,clear sky,0.0,0
295,yulara,AU,2022-05-27 04:15:57,-25.2406,130.9889,73.76,35,2,12.66,clear sky,0.0,0
296,aktash,RU,2022-05-27 04:15:57,50.3,87.7333,60.15,44,88,6.87,overcast clouds,0.0,0
297,siverskiy,RU,2022-05-27 04:15:58,59.3544,30.0783,46.56,93,98,6.31,overcast clouds,0.0,0
298,salalah,OM,2022-05-27 04:11:42,17.0151,54.0924,86.09,70,75,4.61,broken clouds,0.0,0
299,nishihara,JP,2022-05-27 04:15:58,26.1842,127.7558,72.68,97,100,11.5,light intensity shower rain,0.0,0
300,fountain,US,2022-05-27 04:15:59,38.6822,-104.7008,67.46,40,20,6.91,few clouds,0.0,0
301,pacific grove,US,2022-05-27 04:15:59,36.6177,-121.9166,57.51,89,100,5.99,overcast clouds,0.0,0
302,santa maria,BR,2022-05-27 04:15:59,-29.6842,-53.8069,61.79,98,100,4.23,overcast clouds,0.0,0
303,tianpeng,CN,2022-05-27 04:16:00,30.9866,103.9393,66.67,84,100,8.37,overcast clouds,0.0,0
304,port macquarie,AU,2022-05-27 04:16:00,-31.4333,152.9167,68.9,70,0,4.18,clear sky,0.0,0
305,livingstonia,MW,2022-05-27 04:16:00,-10.606,34.1063,60.22,82,12,2.95,few clouds,0.0,0
306,yurimaguas,PE,2022-05-27 04:16:01,-5.9,-76.0833,71.55,92,14,0.43,few clouds,0.0,0
307,defiance,US,2022-05-27 04:16:01,41.3334,-84.45,66.18,82,40,4.61,scattered clouds,0.0,0
308,okhotsk,RU,2022-05-27 04:16:02,59.3833,143.3,39.2,92,100,2.26,overcast clouds,0.0,0
309,new waterford,US,2022-05-27 04:16:02,40.8451,-80.6145,68.29,89,100,5.99,light rain,0.0,0
310,balabac,PH,2022-05-27 04:16:03,7.9868,117.0645,81.72,79,96,10.6,overcast clouds,0.0,0
311,saint-louis,SN,2022-05-27 04:16:03,16.3333,-15.0,75.51,60,28,10.49,light rain,0.0,0
312,umm lajj,SA,2022-05-27 04:16:03,25.0213,37.2685,79.93,55,0,5.3,clear sky,0.0,0
313,camana,PE,2022-05-27 04:16:04,-16.6228,-72.7111,63.39,82,44,5.86,scattered clouds,0.0,0
314,sao joao da barra,BR,2022-05-27 04:16:04,-21.6403,-41.0511,68.29,82,1,7.14,clear sky,0.0,0
315,turayf,SA,2022-05-27 04:16:05,31.6725,38.6637,70.05,28,0,12.66,clear sky,0.0,0
316,itatskiy,RU,2022-05-27 04:16:05,56.07,89.0369,66.16,36,57,9.78,broken clouds,0.0,0
317,necochea,AR,2022-05-27 04:12:34,-38.5473,-58.7368,47.26,61,100,7.81,overcast clouds,0.0,0
318,zhigansk,RU,2022-05-27 04:16:05,66.7697,123.3711,40.69,52,7,22.35,clear sky,0.0,0
319,oktyabrskoye,RU,2022-05-27 04:16:06,43.0645,44.7417,55.54,77,89,2.24,overcast clouds,0.0,0
320,camacha,PT,2022-05-27 04:16:06,33.0833,-16.3333,60.22,82,20,6.91,few clouds,0.0,0
321,faya,SA,2022-05-27 04:16:06,18.3851,42.4509,70.32,29,0,2.82,clear sky,0.0,0
322,umm bab,QA,2022-05-27 04:16:07,25.2142,50.8072,83.84,54,0,12.86,clear sky,0.0,0
323,pucallpa,PE,2022-05-27 04:16:07,-8.3791,-74.5539,71.8,95,61,0.4,broken clouds,0.0,0
324,arkhipo-osipovka,RU,2022-05-27 04:16:08,44.37,38.52,59.52,73,71,1.43,broken clouds,0.0,0
325,araguaina,BR,2022-05-27 04:16:08,-7.1911,-48.2072,73.06,74,8,3.89,clear sky,0.0,0
326,atar,MR,2022-05-27 04:16:08,20.5169,-13.0499,83.7,43,2,6.46,clear sky,0.0,0
327,medvedka,RU,2022-05-27 04:16:09,61.1629,46.387,40.87,98,100,4.25,overcast clouds,0.0,0
328,maceio,BR,2022-05-27 04:13:43,-9.6658,-35.7353,76.44,88,75,10.36,broken clouds,0.0,0
329,kaeo,NZ,2022-05-27 04:16:09,-35.1,173.7833,58.32,96,59,10.18,broken clouds,0.0,0
330,zalantun,CN,2022-05-27 04:16:10,48.0,122.7167,80.4,21,8,11.32,clear sky,0.0,0
331,aswan,EG,2022-05-27 04:16:10,24.0934,32.907,77.99,24,0,6.87,clear sky,0.0,0
332,vanimo,PG,2022-05-27 04:16:10,-2.6741,141.3028,83.53,71,97,5.39,overcast clouds,0.0,0
333,pimentel,PE,2022-05-27 04:16:11,-6.8367,-79.9342,63.79,87,61,13.73,broken clouds,0.0,0
334,provideniya,RU,2022-05-27 04:16:11,64.3833,-173.3,35.71,87,40,11.18,fog,0.0,0
335,jundiai,BR,2022-05-27 04:13:39,-23.1864,-46.8842,66.65,78,34,3.09,scattered clouds,0.0,0
336,nizwa,OM,2022-05-27 04:16:12,22.9333,57.5333,92.79,18,0,1.32,clear sky,0.0,0
337,gat,IL,2022-05-27 04:16:12,31.61,34.7642,78.4,59,37,4.74,scattered clouds,0.0,0
338,dotnuva,LT,2022-05-27 04:16:12,55.35,23.9,50.9,89,5,14.27,clear sky,0.0,0
339,whitehorse,CA,2022-05-27 04:11:50,60.7161,-135.0538,51.1,56,34,8.99,scattered clouds,0.0,0
340,sangar,RU,2022-05-27 04:16:13,63.9242,127.4739,54.21,42,43,0.85,scattered clouds,0.0,0
341,goure,NE,2022-05-27 04:16:13,13.9835,10.2704,82.02,13,0,3.94,clear sky,0.0,0
342,namibe,AO,2022-05-27 04:16:14,-15.1961,12.1522,65.82,85,2,4.9,clear sky,0.0,0
343,yaan,NG,2022-05-27 04:16:14,7.3833,8.5667,72.64,93,100,6.46,overcast clouds,0.0,0
344,bay-khaak,RU,2022-05-27 04:16:15,51.1667,94.5,71.65,32,21,5.99,few clouds,0.0,0
345,trenggalek,ID,2022-05-27 04:16:15,-8.05,111.7167,85.55,65,92,3.74,overcast clouds,0.0,0
346,turgoyak,RU,2022-05-27 04:16:16,55.15,60.1183,51.91,59,4,10.27,clear sky,0.0,0
347,aktau,KZ,2022-05-27 04:16:16,43.65,51.2,63.18,61,2,5.44,clear sky,0.0,0
348,nsanje,MW,2022-05-27 04:16:16,-16.92,35.262,61.77,97,0,2.24,clear sky,0.0,0
349,vuktyl,RU,2022-05-27 04:16:17,63.8567,57.3094,48.43,68,100,6.38,overcast clouds,0.0,0
350,rovnoye,RU,2022-05-27 04:16:17,50.7765,46.0509,56.89,78,100,18.99,overcast clouds,0.0,0
351,phan thiet,VN,2022-05-27 04:15:54,10.9333,108.1,90.03,61,63,13.38,broken clouds,0.0,0
352,itumbiara,BR,2022-05-27 04:16:18,-18.4192,-49.2153,64.63,70,99,5.7,overcast clouds,0.0,0
353,schoningen,DE,2022-05-27 04:16:18,52.138,10.9675,56.98,95,100,14.41,light rain,0.0,0
354,san rafael,AR,2022-05-27 04:16:19,-34.6177,-68.3301,42.89,76,49,4.59,scattered clouds,0.0,0
355,adrar,MR,2022-05-27 04:16:19,20.5022,-10.0711,83.3,41,49,10.67,scattered clouds,0.0,0
356,ucluelet,CA,2022-05-27 04:16:19,48.9329,-125.5528,53.1,92,100,1.01,light rain,0.0,0
357,nioro,GM,2022-05-27 04:16:20,13.35,-15.75,78.67,70,96,4.92,overcast clouds,0.0,0
358,rheinbach,DE,2022-05-27 04:16:20,50.6256,6.9491,59.11,79,69,5.99,broken clouds,0.0,0
359,prachin buri,TH,2022-05-27 04:16:21,14.0833,101.6667,85.71,57,51,13.33,broken clouds,0.0,0
360,chernyshevskiy,RU,2022-05-27 04:16:21,63.0128,112.4714,44.62,29,14,11.1,few clouds,0.0,0
361,tura,IN,2022-05-27 04:16:21,25.5198,90.2201,81.52,76,4,4.85,clear sky,0.0,0
362,mehamn,NO,2022-05-27 04:16:22,71.0357,27.8492,42.71,82,83,16.8,broken clouds,0.0,0
363,paracuru,BR,2022-05-27 04:16:10,-3.41,-39.0306,75.11,87,6,9.89,clear sky,0.0,0
364,cenotillo,MX,2022-05-27 04:16:22,20.9667,-88.6167,77.32,85,61,7.31,broken clouds,0.0,0
365,namatanai,PG,2022-05-27 04:16:23,-3.6667,152.4333,83.53,71,100,6.46,overcast clouds,0.0,0
366,outjo,NA,2022-05-27 04:16:23,-20.1167,16.15,56.37,32,0,7.25,clear sky,0.0,0
367,chabahar,IR,2022-05-27 04:16:23,25.2919,60.643,86.56,66,0,6.46,clear sky,0.0,0
368,camabatela,AO,2022-05-27 04:16:24,-8.1881,15.375,58.15,98,16,1.5,few clouds,0.0,0
369,conceicao da barra,BR,2022-05-27 04:16:24,-18.5933,-39.7322,65.19,87,2,4.52,clear sky,0.0,0
370,awbari,LY,2022-05-27 04:16:25,26.5921,12.7805,81.36,9,19,3.24,few clouds,0.0,0
371,sur,OM,2022-05-27 04:16:25,22.5667,59.5289,91.38,36,0,13.02,clear sky,0.0,0
372,almaznyy,RU,2022-05-27 04:16:26,48.0448,40.045,55.11,83,22,13.09,few clouds,0.0,0
373,krasnoselkup,RU,2022-05-27 04:16:26,65.7,82.4667,56.82,38,0,8.03,clear sky,0.0,0
374,alta floresta,BR,2022-05-27 04:16:26,-9.8756,-56.0861,67.68,72,71,4.07,broken clouds,0.0,0
375,biak,ID,2022-05-27 04:16:27,-0.9131,122.8766,80.62,79,97,7.2,overcast clouds,0.0,0
376,mnogovershinnyy,RU,2022-05-27 04:16:27,53.9353,139.9242,53.82,65,27,8.43,scattered clouds,0.0,0
377,suntar,RU,2022-05-27 04:16:27,62.1444,117.6319,48.83,35,32,10.11,scattered clouds,0.0,0
378,salina,US,2022-05-27 04:16:18,38.8403,-97.6114,56.01,93,0,5.75,clear sky,0.0,0
379,santa luzia,BR,2022-05-27 04:16:28,-19.7697,-43.8514,59.9,82,0,0.0,clear sky,0.0,0
380,leningradskiy,RU,2022-05-27 04:16:28,69.3833,178.4167,36.36,82,100,7.49,overcast clouds,0.0,0
381,kisangani,CD,2022-05-27 04:16:29,0.5167,25.2,68.11,98,95,1.34,overcast clouds,0.0,0
382,hailar,CN,2022-05-27 04:16:29,49.2,119.7,77.34,17,85,14.03,overcast clouds,0.0,0
383,verkhnyaya inta,RU,2022-05-27 04:16:29,65.9811,60.3094,45.86,75,100,5.97,light rain,0.0,0
384,kavaratti,IN,2022-05-27 04:16:30,10.5669,72.642,82.65,76,90,6.06,overcast clouds,0.0,0
385,codrington,AU,2022-05-27 04:16:30,-38.2667,141.9667,59.52,62,97,7.11,overcast clouds,0.0,0
386,bandarbeyla,SO,2022-05-27 04:16:31,9.4942,50.8122,84.43,66,48,18.14,scattered clouds,0.0,0
387,christchurch,NZ,2022-05-27 04:16:13,-43.5333,172.6333,55.94,68,0,9.22,clear sky,0.0,0
388,khandyga,RU,2022-05-27 04:16:31,62.6667,135.6,50.67,60,100,1.95,overcast clouds,0.0,0
389,hearst,CA,2022-05-27 04:16:31,49.6835,-83.6665,50.25,98,100,4.43,overcast clouds,0.0,0
390,comodoro rivadavia,AR,2022-05-27 04:12:46,-45.8667,-67.5,40.86,48,0,20.71,clear sky,0.0,0
391,raga,SS,2022-05-27 04:16:32,8.4596,25.678,72.55,75,49,4.43,scattered clouds,0.0,0
392,mozarlandia,BR,2022-05-27 04:16:32,-14.7447,-50.5706,69.64,51,43,3.22,scattered clouds,0.0,0
393,luanda,AO,2022-05-27 04:15:18,-8.8368,13.2343,69.8,88,40,2.3,scattered clouds,0.0,0
394,champerico,GT,2022-05-27 04:16:33,14.3,-91.9167,78.87,84,100,6.96,overcast clouds,0.0,0
395,alice springs,AU,2022-05-27 04:16:33,-23.7,133.8833,71.15,32,2,11.5,clear sky,0.0,0
396,rudbar,AF,2022-05-27 04:16:34,30.15,62.6,81.72,23,0,14.2,clear sky,0.0,0
397,mushie,CD,2022-05-27 04:16:34,-3.0167,16.9,70.47,94,97,2.39,overcast clouds,0.0,0
398,manyana,BW,2022-05-27 04:16:35,-23.4,21.7167,56.19,38,0,7.02,clear sky,0.0,0
399,brasilia,BR,2022-05-27 04:16:35,-15.7797,-47.9297,63.52,77,0,8.05,clear sky,0.0,0
400,flinders,AU,2022-05-27 04:16:35,-34.5833,150.8552,73.18,69,41,4.0,scattered clouds,0.0,0
401,rio grande,BR,2022-05-27 04:16:36,-32.035,-52.0986,61.95,95,100,16.24,overcast clouds,0.0,0
402,kutum,SD,2022-05-27 04:16:36,14.2,24.6667,69.73,12,1,5.14,clear sky,0.0,0
403,san-pedro,CI,2022-05-27 04:16:36,4.7485,-6.6363,76.62,89,79,2.59,broken clouds,0.0,0
404,samarinda,ID,2022-05-27 04:14:08,-0.5,117.15,74.23,98,100,2.48,overcast clouds,0.0,0
405,catuday,PH,2022-05-27 04:16:37,16.2923,119.8062,85.37,67,80,12.21,broken clouds,0.0,0
406,kilindoni,TZ,2022-05-27 04:16:37,-7.9139,39.6668,80.33,74,21,13.22,few clouds,0.0,0
407,bonavista,CA,2022-05-27 04:15:27,48.6499,-53.1147,36.93,65,95,10.8,overcast clouds,0.0,0
408,lazaro cardenas,MX,2022-05-27 04:16:38,17.9583,-102.2,77.61,83,56,2.06,broken clouds,0.0,0
409,monte patria,CL,2022-05-27 04:16:38,-30.6919,-70.9467,58.17,56,0,0.02,clear sky,0.0,0
410,loukhi,RU,2022-05-27 04:16:39,66.0764,33.0381,40.33,94,100,5.73,overcast clouds,0.0,0
411,zhangye,CN,2022-05-27 04:16:39,38.9342,100.4517,76.59,19,100,8.72,overcast clouds,0.0,0
412,lunenburg,CA,2022-05-27 04:16:39,44.3835,-64.3155,54.48,78,100,12.66,overcast clouds,0.0,0
413,teahupoo,PF,2022-05-27 04:16:40,-17.8333,-149.2667,78.53,71,28,13.18,scattered clouds,0.0,0
414,peniche,PT,2022-05-27 04:16:40,39.3558,-9.3811,65.1,75,84,5.93,broken clouds,0.0,0
415,kargasok,RU,2022-05-27 04:16:41,59.0556,80.8572,68.31,42,2,8.79,clear sky,0.0,0
416,praia,CV,2022-05-27 04:16:41,14.9215,-23.5087,72.14,78,20,10.36,few clouds,0.0,0
417,tevriz,RU,2022-05-27 04:16:42,57.509,72.4042,71.2,47,87,14.05,overcast clouds,0.0,0
418,coihaique,CL,2022-05-27 04:16:42,-45.5752,-72.0662,34.41,86,0,4.61,clear sky,0.0,0
419,northam,GB,2022-05-27 04:16:42,51.0333,-4.2167,52.66,93,84,8.95,broken clouds,0.0,0
420,talnakh,RU,2022-05-27 04:16:43,69.4865,88.3972,42.55,79,87,7.67,overcast clouds,0.0,0
421,vardo,NO,2022-05-27 04:16:43,70.3705,31.1107,39.18,93,100,17.27,light intensity drizzle,0.0,0
422,sergeyevka,KZ,2022-05-27 04:16:43,53.88,67.4158,50.9,78,100,20.31,overcast clouds,0.0,0
423,atherton,GB,2022-05-27 04:16:44,53.5237,-2.4935,51.42,70,74,5.01,broken clouds,0.0,0
424,veraval,IN,2022-05-27 04:16:44,20.9,70.3667,85.23,68,91,16.28,overcast clouds,0.0,0
425,altamira,BR,2022-05-27 04:16:44,-3.2033,-52.2064,73.71,90,97,1.9,overcast clouds,0.0,0
426,svetlyy,RU,2022-05-27 04:16:45,54.675,20.1347,51.96,81,48,15.86,scattered clouds,0.0,0
427,sunndalsora,NO,2022-05-27 04:16:45,62.6754,8.5515,45.41,86,100,3.2,overcast clouds,0.0,0
428,meadow lake,US,2022-05-27 04:16:46,34.8014,-106.5436,76.14,11,6,5.75,clear sky,0.0,0
429,wadi musa,JO,2022-05-27 04:16:46,30.3222,35.4793,69.75,29,24,7.83,few clouds,0.0,0
430,warrington,GB,2022-05-27 04:16:46,53.3925,-2.5802,51.98,69,40,17.27,scattered clouds,0.0,0
431,neuquen,AR,2022-05-27 04:16:47,-38.9516,-68.0591,30.09,93,0,0.0,clear sky,0.0,0
432,mayumba,GA,2022-05-27 04:16:47,-3.432,10.6554,72.64,93,100,6.13,overcast clouds,0.0,0
433,kabwe,ZM,2022-05-27 04:16:47,-14.4469,28.4464,52.74,63,0,3.76,clear sky,0.0,0
434,mundo nuevo,MX,2022-05-27 04:16:48,18.7,-95.5,81.55,85,100,9.78,overcast clouds,0.0,0
435,kpandae,GH,2022-05-27 04:16:48,8.4689,-0.0113,74.25,92,100,8.21,overcast clouds,0.0,0
436,norwalk,US,2022-05-27 04:16:48,33.9022,-118.0817,66.63,77,0,9.22,clear sky,0.0,0
437,talaja,IN,2022-05-27 04:16:49,21.35,72.05,91.35,52,11,18.43,few clouds,0.0,0
438,kavieng,PG,2022-05-27 04:16:49,-2.5744,150.7967,83.57,62,100,8.7,overcast clouds,0.0,0
439,kijang,KR,2022-05-27 04:16:50,35.2442,129.2139,82.13,39,1,15.12,clear sky,0.0,0
440,carcassonne,FR,2022-05-27 04:16:50,43.25,2.1667,61.23,83,0,8.05,clear sky,0.0,0
441,ardino,BG,2022-05-27 04:16:50,41.5833,25.1333,62.74,84,50,3.06,scattered clouds,0.0,0
442,omsukchan,RU,2022-05-27 04:16:51,62.5333,155.8,40.78,79,99,6.71,overcast clouds,0.0,0
443,brigantine,US,2022-05-27 04:16:51,39.4101,-74.3646,66.04,98,100,5.75,mist,0.0,0
444,morondava,MG,2022-05-27 04:16:51,-20.2833,44.2833,67.32,83,0,6.55,clear sky,0.0,0
445,caravelas,BR,2022-05-27 04:12:53,-17.7125,-39.2481,68.38,85,4,1.63,clear sky,0.0,0
446,asmara,ER,2022-05-27 04:16:52,15.3333,38.9333,66.09,23,16,2.33,few clouds,0.0,0
447,bria,CF,2022-05-27 04:16:52,6.5423,21.9863,68.16,96,100,3.47,overcast clouds,0.0,0
448,apiai,BR,2022-05-27 04:16:53,-24.5094,-48.8425,53.98,77,77,2.44,broken clouds,0.0,0
449,pringsewu,ID,2022-05-27 04:16:53,-5.3582,104.9744,89.19,56,86,1.77,overcast clouds,0.0,0
450,ganzhou,CN,2022-05-27 04:16:54,28.8184,115.4327,72.93,85,100,1.32,overcast clouds,0.0,0
451,puerto madryn,AR,2022-05-27 04:16:54,-42.7692,-65.0385,39.87,64,2,12.28,clear sky,0.0,0
452,salinas,US,2022-05-27 04:16:54,36.6777,-121.6555,59.41,81,100,4.61,overcast clouds,0.0,0
453,edgewater,US,2022-05-27 04:16:55,28.9889,-80.9023,79.03,83,74,13.94,broken clouds,0.0,0
454,jodhpur,IN,2022-05-27 04:15:40,26.2867,73.03,89.4,48,0,19.98,clear sky,0.0,0
455,tondano,ID,2022-05-27 04:16:55,1.3038,124.9112,75.29,75,71,2.57,moderate rain,0.0,0
456,sydney,AU,2022-05-27 04:12:26,-33.8679,151.2073,72.3,67,20,3.0,few clouds,0.0,0
457,takoradi,GH,2022-05-27 04:16:56,4.8845,-1.7554,76.33,89,100,0.16,overcast clouds,0.0,0
458,kirksville,US,2022-05-27 04:16:56,40.1948,-92.5833,55.56,94,100,12.66,overcast clouds,0.0,0
459,ringebu,NO,2022-05-27 04:16:56,61.5167,10.1667,41.41,97,100,7.14,overcast clouds,0.0,0
460,ustrzyki dolne,PL,2022-05-27 04:16:57,49.4304,22.5938,52.12,100,29,4.16,scattered clouds,0.0,0
461,anadyr,RU,2022-05-27 04:16:57,64.75,177.4833,41.5,80,20,8.95,fog,0.0,0
462,qaqortoq,GL,2022-05-27 04:16:58,60.7167,-46.0333,33.31,95,100,3.53,light snow,0.0,0
463,igurusi,TZ,2022-05-27 04:16:58,-8.85,33.85,61.72,87,53,1.5,broken clouds,0.0,0
464,qujing,CN,2022-05-27 04:16:58,25.4833,103.7833,72.37,71,100,8.93,light rain,0.0,0
465,belle glade,US,2022-05-27 04:16:59,26.6845,-80.6676,79.05,83,18,9.53,few clouds,0.0,0
466,diffa,NE,2022-05-27 04:13:18,13.3154,12.6113,83.01,14,0,7.29,clear sky,0.0,0
467,kamenka,RU,2022-05-27 04:14:28,51.3223,42.7678,54.21,88,68,17.87,broken clouds,0.0,0
468,finnsnes,NO,2022-05-27 04:16:59,69.2296,17.9811,45.21,53,99,4.03,overcast clouds,0.0,0
469,canaries,ES,2022-05-27 04:17:00,28.0,-15.5,58.96,68,20,14.97,few clouds,0.0,0
470,hirara,JP,2022-05-27 04:17:00,24.8,125.2833,78.66,94,75,11.5,light rain,0.0,0
471,piliscsaba,HU,2022-05-27 04:17:00,47.6342,18.8289,62.8,65,40,3.67,scattered clouds,0.0,0
472,mosetse,BW,2022-05-27 04:17:01,-20.75,26.65,55.63,36,0,8.95,clear sky,0.0,0
473,tyukhtet,RU,2022-05-27 04:17:01,56.5389,89.3011,66.09,33,7,7.29,clear sky,0.0,0
474,mincivan,AZ,2022-05-27 04:17:01,39.0294,46.7185,62.83,62,0,2.42,clear sky,0.0,0
475,druzhba,UA,2022-05-27 04:17:02,52.0428,33.9453,51.87,88,66,17.67,broken clouds,0.0,0
476,ust-kuyga,RU,2022-05-27 04:17:02,70.0167,135.6,33.55,63,45,6.58,scattered clouds,0.0,0
477,jacobina,BR,2022-05-27 04:17:03,-11.1806,-40.5183,64.45,93,63,6.13,broken clouds,0.0,0
478,porto-vecchio,FR,2022-05-27 04:17:03,41.591,9.2795,69.46,78,0,5.75,clear sky,0.0,0
479,paamiut,GL,2022-05-27 04:17:03,61.994,-49.6678,29.55,93,100,12.24,light snow,0.0,0
480,yarada,IN,2022-05-27 04:17:04,17.65,83.2667,80.92,74,100,4.61,light intensity drizzle,0.0,0
481,panguna,PG,2022-05-27 04:17:04,-6.3164,155.4848,75.63,86,95,2.68,moderate rain,0.0,0
482,margate,GB,2022-05-27 04:17:05,51.3813,1.3862,56.3,87,77,3.0,broken clouds,0.0,0
483,nampula,MZ,2022-05-27 04:17:05,-15.1165,39.2666,64.35,94,20,4.61,mist,0.0,0
484,niquero,CU,2022-05-27 04:17:06,20.0431,-77.5828,76.62,86,57,9.06,broken clouds,0.0,0
485,garden city,US,2022-05-27 04:13:59,42.3256,-83.331,66.45,93,100,8.05,mist,0.0,0
486,rocha,UY,2022-05-27 04:17:07,-34.4833,-54.3333,53.87,92,100,3.29,overcast clouds,0.0,0
487,roebourne,AU,2022-05-27 04:17:07,-20.7833,117.1333,83.86,42,92,9.53,overcast clouds,0.0,0
488,acarau,BR,2022-05-27 04:13:53,-2.8856,-40.12,75.58,87,2,8.97,clear sky,0.0,0
489,taoudenni,ML,2022-05-27 04:17:08,22.6783,-3.9836,90.81,21,1,7.94,clear sky,0.0,0
490,amarillo,US,2022-05-27 04:15:01,35.222,-101.8313,69.24,44,0,9.22,clear sky,0.0,0
491,xifeng,CN,2022-05-27 04:17:08,42.7372,124.7222,64.8,71,99,2.33,overcast clouds,0.0,0
492,banjar,ID,2022-05-27 04:17:09,-8.19,114.9675,84.81,65,100,3.02,overcast clouds,0.0,0
493,princeton,US,2022-05-27 04:17:09,25.5384,-80.4089,81.01,83,0,4.61,clear sky,0.0,0
494,mednogorsk,RU,2022-05-27 04:17:10,51.4128,57.595,52.63,64,83,6.42,broken clouds,0.0,0
495,ambon,ID,2022-05-27 04:17:10,-3.6954,128.1814,89.74,66,40,2.3,scattered clouds,0.0,0
496,walvis bay,NA,2022-05-27 04:17:11,-22.9575,14.5053,47.35,100,0,3.44,clear sky,0.0,0
497,aksay,RU,2022-05-27 04:17:11,47.26,39.87,61.25,66,69,8.01,broken clouds,0.0,0
498,urman,RU,2022-05-27 04:17:12,54.8831,56.8742,52.77,63,70,5.75,broken clouds,0.0,0
499,vanavara,RU,2022-05-27 04:17:12,60.34,102.2797,49.28,40,79,10.33,broken clouds,0.0,0
500,toda raisingh,IN,2022-05-27 04:17:13,26.0252,75.4849,91.51,39,0,14.54,clear sky,0.0,0
501,bend,US,2022-05-27 04:16:28,44.0582,-121.3153,55.87,80,20,9.22,few clouds,0.0,0
502,dingle,PH,2022-05-27 04:17:13,10.9995,122.6711,86.47,64,100,4.76,overcast clouds,0.0,0
503,mahanoro,MG,2022-05-27 04:17:14,-19.9,48.8,69.91,90,16,3.38,few clouds,0.0,0
504,college,US,2022-05-27 04:17:14,64.8569,-147.8028,69.75,35,75,16.11,broken clouds,0.0,0
505,karpathos,GR,2022-05-27 04:17:15,35.507,27.2132,71.56,83,0,17.27,clear sky,0.0,0
506,sangmelima,CM,2022-05-27 04:17:15,2.9333,11.9833,65.46,100,91,1.79,overcast clouds,0.0,0
507,khromtau,KZ,2022-05-27 04:17:15,50.2503,58.4347,54.95,51,5,7.4,clear sky,0.0,0
508,keti bandar,PK,2022-05-27 04:17:16,24.1447,67.4497,84.78,77,18,24.29,few clouds,0.0,0
509,horki,BY,2022-05-27 04:17:16,54.2861,30.9842,46.94,87,83,15.86,broken clouds,0.0,0
510,mizan teferi,ET,2022-05-27 04:17:17,6.9833,35.5833,61.07,97,98,2.84,light rain,0.0,0
511,murray bridge,AU,2022-05-27 04:17:17,-35.1167,139.2667,62.82,60,39,5.23,scattered clouds,0.0,0
512,west bay,KY,2022-05-27 04:17:18,19.3667,-81.4167,81.07,82,23,1.99,few clouds,0.0,0
513,muzhi,RU,2022-05-27 04:17:18,65.3667,64.6667,63.34,81,95,11.27,overcast clouds,0.0,0
514,bocas del toro,PA,2022-05-27 04:17:18,9.3333,-82.25,79.84,81,95,3.56,overcast clouds,0.0,0
515,cockburn town,TC,2022-05-27 04:17:19,21.4612,-71.1419,79.93,73,93,20.42,overcast clouds,0.0,0
516,gisborne,NZ,2022-05-27 04:17:19,-38.6533,178.0042,55.22,69,78,7.07,broken clouds,0.0,0
517,korcula,HR,2022-05-27 04:17:20,42.9622,17.1369,69.64,64,50,4.38,scattered clouds,0.0,0
518,molokovo,RU,2022-05-27 04:17:20,58.1661,36.7628,47.75,98,100,5.28,overcast clouds,0.0,0
519,port-cartier,CA,2022-05-27 04:17:20,50.0334,-66.8654,42.75,94,100,18.01,moderate rain,0.0,0
520,labuhan,ID,2022-05-27 04:17:21,-6.8844,112.2051,85.3,63,95,1.01,overcast clouds,0.0,0
521,johor bahru,MY,2022-05-27 04:15:17,1.4655,103.7578,93.31,56,75,4.61,broken clouds,0.0,0
522,pochutla,MX,2022-05-27 04:17:21,15.7432,-96.4661,76.82,91,100,5.12,overcast clouds,0.0,0
523,idil,TR,2022-05-27 04:17:22,37.3411,41.8895,64.33,45,0,6.91,clear sky,0.0,0
524,valley city,US,2022-05-27 04:17:22,46.9233,-98.0032,59.52,82,40,8.05,scattered clouds,0.0,0
525,nuevo progreso,MX,2022-05-27 04:17:22,23.1667,-97.95,79.54,70,39,3.06,scattered clouds,0.0,0
526,port keats,AU,2022-05-27 04:17:23,-14.25,129.55,91.0,31,45,3.62,scattered clouds,0.0,0
527,bud,US,2022-05-27 04:17:23,39.447,-86.1758,62.91,94,54,6.71,broken clouds,0.0,0
528,marzuq,YE,2022-05-27 04:17:23,14.4,46.4667,81.59,13,6,2.51,clear sky,0.0,0
529,isla aguada,MX,2022-05-27 04:17:24,18.7833,-91.4667,83.88,74,89,12.64,overcast clouds,0.0,0
530,nouadhibou,MR,2022-05-27 04:17:24,20.931,-17.0347,64.38,94,6,12.66,clear sky,0.0,0
531,magaria,NE,2022-05-27 04:14:23,12.9983,8.9099,79.81,20,1,7.81,clear sky,0.0,0
532,vao,NC,2022-05-27 04:17:25,-22.6667,167.4833,73.69,78,100,8.3,overcast clouds,0.0,0
533,iracoubo,GF,2022-05-27 04:17:25,5.4802,-53.2011,77.45,84,100,8.23,overcast clouds,0.0,0
534,jian,CN,2022-05-27 04:17:26,27.1172,114.9793,72.36,84,100,2.82,overcast clouds,0.0,0
535,rio gallegos,AR,2022-05-27 04:17:26,-51.6226,-69.2181,33.85,80,0,17.27,clear sky,0.0,0
536,haines junction,CA,2022-05-27 04:17:26,60.7522,-137.5108,53.55,43,86,12.66,overcast clouds,0.0,0
537,ladybrand,ZA,2022-05-27 04:17:27,-29.1945,27.4574,42.04,63,0,3.06,clear sky,0.0,0
538,srednekolymsk,RU,2022-05-27 04:17:27,67.45,153.6833,44.82,42,100,14.07,overcast clouds,0.0,0
539,diego de almagro,CL,2022-05-27 04:17:27,-26.3667,-70.05,56.82,39,31,1.97,scattered clouds,0.0,0
540,guanica,PR,2022-05-27 04:16:15,17.9716,-66.908,77.92,82,14,6.33,few clouds,0.0,0
541,aykhal,RU,2022-05-27 04:17:28,66.0,111.5,37.92,49,100,16.42,overcast clouds,0.0,0
542,muli,MV,2022-05-27 04:17:28,2.9167,73.5667,83.37,70,10,10.47,clear sky,0.0,0
543,ocos,GT,2022-05-27 04:17:29,14.5094,-92.1933,77.18,82,100,8.32,overcast clouds,0.0,0
544,utmanzai,PK,2022-05-27 04:17:29,34.188,71.7629,90.21,22,0,4.0,clear sky,0.0,0
545,ust-kulom,RU,2022-05-27 04:17:29,61.6864,53.6902,46.26,83,31,8.81,scattered clouds,0.0,0
546,gander,CA,2022-05-27 04:17:30,48.9682,-54.5906,33.93,80,75,3.44,broken clouds,0.0,0
547,mandurah,AU,2022-05-27 04:17:30,-32.55,115.7,72.91,47,90,7.76,overcast clouds,0.0,0
548,wajima,JP,2022-05-27 04:15:16,37.4,136.9,72.28,78,20,10.36,few clouds,0.0,0
549,meulaboh,ID,2022-05-27 04:17:31,4.1363,96.1285,86.14,65,73,5.79,broken clouds,0.0,0
550,barcelos,PT,2022-05-27 04:14:59,41.5388,-8.6151,71.74,58,17,7.7,few clouds,0.0,0
551,kudahuvadhoo,MV,2022-05-27 04:17:31,2.6708,72.8944,83.26,69,4,10.02,clear sky,0.0,0
552,killybegs,IE,2022-05-27 04:17:31,54.6333,-8.45,50.74,68,78,17.56,broken clouds,0.0,0
553,petropavlovsk-kamchatskiy,RU,2022-05-27 04:15:22,53.0452,158.6483,53.78,62,40,15.66,scattered clouds,0.0,0
554,torrington,US,2022-05-27 04:17:32,41.8007,-73.1212,63.14,87,97,3.0,overcast clouds,0.0,0
555,bosaso,SO,2022-05-27 04:17:32,11.2842,49.1816,86.95,58,46,5.77,scattered clouds,0.0,0
556,winneba,GH,2022-05-27 04:16:18,5.3511,-0.6231,75.67,91,97,4.54,light rain,0.0,0
557,quatre cocos,MU,2022-05-27 04:17:33,-20.2078,57.7625,75.09,71,0,5.82,clear sky,0.0,0
558,balsas,BR,2022-05-27 04:17:33,-7.5325,-46.0356,73.81,72,88,3.29,overcast clouds,0.0,0
559,uchkent,RU,2022-05-27 04:17:34,43.1143,47.0826,63.93,54,91,3.53,overcast clouds,0.0,0
560,mayor pablo lagerenza,PY,2022-05-27 04:17:34,-19.9309,-60.7718,61.32,95,100,4.29,overcast clouds,0.0,0
561,salta,AR,2022-05-27 04:12:49,-24.7859,-65.4117,55.58,88,75,1.01,broken clouds,0.0,0
562,san patricio,US,2022-05-27 04:17:34,28.017,-97.5169,80.46,82,1,9.91,clear sky,0.0,0
563,phatthalung,TH,2022-05-27 04:17:35,7.5,100.0833,88.99,60,100,8.1,overcast clouds,0.0,0
564,santarem,BR,2022-05-27 04:17:35,-2.4431,-54.7083,75.33,94,40,5.75,thunderstorm with light rain,0.0,0
565,gamba,GA,2022-05-27 04:17:36,-2.65,10.0,72.61,93,100,4.92,overcast clouds,0.0,0
566,igrim,RU,2022-05-27 04:17:36,63.1906,64.4162,54.91,95,99,4.34,light rain,0.0,0
567,conde,BR,2022-05-27 04:17:36,-7.2597,-34.9075,72.86,100,75,8.05,broken clouds,0.0,0
568,arlit,NE,2022-05-27 04:17:37,18.7369,7.3853,85.32,11,41,7.58,scattered clouds,0.0,0
569,marivan,IR,2022-05-27 04:17:37,35.5219,46.176,63.41,30,0,5.46,clear sky,0.0,0
570,shimoda,JP,2022-05-27 04:17:37,34.6667,138.95,75.56,86,100,11.27,overcast clouds,0.0,0
571,santa comba,ES,2022-05-27 04:17:38,43.0331,-8.8093,55.54,90,40,3.78,scattered clouds,0.0,0
572,roswell,US,2022-05-27 04:16:22,34.0232,-84.3616,68.92,93,75,5.75,broken clouds,0.0,0
573,vytegra,RU,2022-05-27 04:17:38,61.0064,36.4481,47.61,67,13,3.96,few clouds,0.0,0
574,bogorodskoye,RU,2022-05-27 04:17:39,56.55,37.8833,48.24,95,100,9.75,light rain,0.0,0
575,finschhafen,PG,2022-05-27 04:17:39,-6.6024,147.8681,84.52,67,76,5.12,broken clouds,0.0,0
576,rabo de peixe,PT,2022-05-27 04:17:39,37.8,-25.5833,60.31,94,40,9.22,scattered clouds,0.0,0
577,lavrentiya,RU,2022-05-27 04:17:40,65.5833,-171.0,35.02,90,75,3.78,broken clouds,0.0,0
578,coquimbo,CL,2022-05-27 04:13:30,-29.9533,-71.3436,53.33,100,100,4.61,overcast clouds,0.0,0
579,constantine,DZ,2022-05-27 04:17:40,36.365,6.6147,56.61,88,75,8.05,broken clouds,0.0,0
580,noumea,NC,2022-05-27 04:17:40,-22.2763,166.4572,80.01,99,100,11.23,light rain,0.0,0
581,changli,CN,2022-05-27 04:17:41,39.7042,119.1506,90.95,12,0,10.83,clear sky,0.0,0
582,liverpool,GB,2022-05-27 04:15:20,53.4106,-2.9779,51.82,67,40,17.27,scattered clouds,0.0,0
583,moindou,NC,2022-05-27 04:17:42,-21.6924,165.677,79.9,65,89,4.23,overcast clouds,0.0,0
584,selaphum,TH,2022-05-27 04:17:42,16.0299,103.9383,92.08,55,98,16.24,overcast clouds,0.0,0
585,trincomalee,LK,2022-05-27 04:17:42,8.5711,81.2335,86.45,65,86,18.19,overcast clouds,0.0,0
586,chinhoyi,ZW,2022-05-27 04:17:43,-17.3667,30.2,54.21,55,3,4.18,clear sky,0.0,0
587,kostrzyn,PL,2022-05-27 04:17:43,52.3985,17.2281,55.98,84,100,7.0,overcast clouds,0.0,0
588,indiaroba,BR,2022-05-27 04:17:44,-11.5192,-37.5117,71.73,93,67,7.31,broken clouds,0.0,0
589,callaguip,PH,2022-05-27 04:17:44,18.0714,120.4867,89.62,70,75,8.05,broken clouds,0.0,0
590,marystown,CA,2022-05-27 04:17:45,47.1666,-55.1483,43.86,100,99,14.25,overcast clouds,0.0,0
591,sobolevo,RU,2022-05-27 04:17:46,54.4299,31.8996,46.71,88,89,15.08,overcast clouds,0.0,0
592,antofagasta,CL,2022-05-27 04:17:46,-23.65,-70.4,58.28,73,91,5.86,overcast clouds,0.0,0
593,pampa,US,2022-05-27 04:17:47,35.5362,-100.9599,70.75,52,0,9.22,clear sky,0.0,0
594,maniitsoq,GL,2022-05-27 04:17:47,65.4167,-52.9,30.2,76,100,12.82,overcast clouds,0.0,0
595,muniz freire,BR,2022-05-27 04:17:47,-20.4642,-41.4131,57.43,96,26,2.48,scattered clouds,0.0,0
596,paraiso,CR,2022-05-27 04:14:25,9.8383,-83.8656,67.87,100,100,1.7,overcast clouds,0.0,0
597,eyl,SO,2022-05-27 04:17:48,7.9803,49.8164,83.98,62,76,21.21,broken clouds,0.0,0
598,langham,CA,2022-05-27 04:17:48,52.3668,-106.9679,60.64,60,71,5.75,broken clouds,0.0,0
599,oron,NG,2022-05-27 04:17:49,4.8256,8.2343,75.09,94,100,3.71,light rain,0.0,0
600,manjeshwar,IN,2022-05-27 04:17:49,12.7194,74.8861,85.15,72,76,0.81,broken clouds,0.0,0
601,elbistan,TR,2022-05-27 04:17:49,38.2059,37.1983,61.32,51,0,2.01,clear sky,0.0,0
602,maroua,CM,2022-05-27 04:17:33,10.591,14.3159,83.79,48,43,10.02,scattered clouds,0.0,0
603,saint-joseph,RE,2022-05-27 04:17:50,-21.3667,55.6167,71.98,61,0,1.45,clear sky,0.0,0
604,zvenigorod,RU,2022-05-27 04:17:50,55.7333,36.8475,50.25,94,100,9.31,overcast clouds,0.0,0
605,terme,TR,2022-05-27 04:17:51,41.2092,36.9739,62.53,75,3,6.04,clear sky,0.0,0
606,clarence town,AU,2022-05-27 04:17:51,-32.5833,151.7833,71.94,60,4,0.58,clear sky,0.0,0
607,balaipungut,ID,2022-05-27 04:17:51,1.05,101.2833,89.22,59,94,3.49,overcast clouds,0.0,0
608,ambilobe,MG,2022-05-27 04:17:52,-13.2,49.05,71.33,84,63,2.39,broken clouds,0.0,0
609,bilibino,RU,2022-05-27 04:17:52,68.0546,166.4372,53.4,58,100,8.68,overcast clouds,0.0,0
610,hefei,CN,2022-05-27 04:17:53,31.8639,117.2808,82.42,47,0,2.24,clear sky,0.0,0
611,mulki,IN,2022-05-27 04:17:53,13.1,74.8,85.28,74,40,0.0,scattered clouds,0.0,0
612,bam,IR,2022-05-27 04:17:53,29.106,58.357,85.5,12,0,18.07,clear sky,0.0,0
613,komsomolskiy,UZ,2022-05-27 04:17:54,40.4272,71.7189,79.52,38,5,6.91,clear sky,0.0,0
614,chimoio,MZ,2022-05-27 04:17:54,-19.1164,33.4833,57.06,100,0,2.66,clear sky,0.0,0
615,san policarpo,PH,2022-05-27 04:17:55,12.1791,125.5072,84.94,68,93,11.9,overcast clouds,0.0,0
616,strezhevoy,RU,2022-05-27 04:14:42,60.7333,77.5889,65.91,32,0,11.81,clear sky,0.0,0
617,debre tabor,ET,2022-05-27 04:17:55,11.85,38.0167,59.97,54,62,2.1,broken clouds,0.0,0
618,hailey,US,2022-05-27 04:17:55,43.5196,-114.3153,62.46,62,100,13.0,overcast clouds,0.0,0
619,hayesville,US,2022-05-27 04:17:56,44.986,-122.9829,63.07,84,94,3.0,overcast clouds,0.0,0
620,luderitz,NA,2022-05-27 04:17:56,-26.6481,15.1594,56.35,79,1,6.04,clear sky,0.0,0
621,saint-jean-de-luz,FR,2022-05-27 04:17:57,43.3891,-1.6581,63.73,88,75,3.44,broken clouds,0.0,0
622,beringovskiy,RU,2022-05-27 04:17:57,63.05,179.3167,46.27,65,71,16.96,broken clouds,0.0,0
623,ahipara,NZ,2022-05-27 04:17:57,-35.1667,173.1667,60.87,78,29,4.34,light rain,0.0,0
624,tevaitoa,PF,2022-05-27 04:17:58,-16.7833,-151.5,81.12,69,13,13.4,light rain,0.0,0
625,hervey bay,AU,2022-05-27 04:17:58,-25.2986,152.8535,73.02,74,10,4.0,clear sky,0.0,0
626,shonguy,RU,2022-05-27 04:17:58,68.7526,33.146,39.27,100,100,11.18,light intensity drizzle,0.0,0
627,cochabamba,BO,2022-05-27 04:17:59,-17.3895,-66.1568,55.15,54,14,5.75,few clouds,0.0,0
628,aloleng,PH,2022-05-27 04:17:59,16.1307,119.7824,87.1,66,68,12.84,broken clouds,0.0,0
629,ubinskoye,RU,2022-05-27 04:18:00,55.3068,79.6802,68.65,38,0,13.38,clear sky,0.0,0
630,mumford,GH,2022-05-27 04:18:00,5.2618,-0.759,75.94,90,100,4.45,light rain,0.0,0
631,iwanai,JP,2022-05-27 04:18:00,42.9744,140.5089,59.97,96,100,5.03,moderate rain,0.0,0
632,aboisso,CI,2022-05-27 04:18:01,5.4678,-3.2071,74.32,97,89,2.77,moderate rain,0.0,0
633,viedma,AR,2022-05-27 04:18:01,-40.8135,-62.9967,39.6,88,2,9.95,clear sky,0.0,0
634,ozernovskiy,RU,2022-05-27 04:18:01,51.5,156.5167,42.53,84,65,8.55,broken clouds,0.0,0
635,kinkala,CG,2022-05-27 04:18:02,-4.3614,14.7644,69.64,95,99,3.2,overcast clouds,0.0,0
636,marrakesh,MA,2022-05-27 04:14:26,31.6315,-8.0083,71.67,53,20,3.44,few clouds,0.0,0
637,dongsheng,CN,2022-05-27 04:18:02,39.8161,109.9776,72.3,13,100,13.29,overcast clouds,0.0,0
638,yuzhno-kurilsk,RU,2022-05-27 04:18:03,44.0306,145.8556,54.27,84,99,11.97,overcast clouds,0.0,0
639,akhtubinsk,RU,2022-05-27 04:18:03,48.2795,46.1722,60.6,65,100,11.07,overcast clouds,0.0,0
640,novikovo,RU,2022-05-27 04:18:03,51.1537,37.8879,53.6,86,43,15.41,scattered clouds,0.0,0
641,vagay,RU,2022-05-27 04:18:04,57.9375,69.0217,63.97,66,100,12.01,light rain,0.0,0
642,buluang,PH,2022-05-27 04:18:04,13.3068,123.3425,88.02,64,94,3.27,overcast clouds,0.0,0
643,phuket,TH,2022-05-27 04:18:05,8.0,98.25,90.12,70,40,16.11,scattered clouds,0.0,0
644,sitia,GR,2022-05-27 04:18:05,35.2,26.0986,70.99,51,1,5.28,clear sky,0.0,0
645,sabang,ID,2022-05-27 04:17:07,5.8933,95.3214,84.83,70,100,19.26,overcast clouds,0.0,0
646,xiongzhou,CN,2022-05-27 04:18:06,25.1167,114.3,73.04,96,100,2.89,light rain,0.0,0
647,guarapari,BR,2022-05-27 04:18:06,-20.6667,-40.4975,63.9,82,32,4.32,scattered clouds,0.0,0
648,moron,AR,2022-05-27 04:18:06,-34.6534,-58.6198,55.15,82,40,5.12,scattered clouds,0.0,0
649,salinopolis,BR,2022-05-27 04:18:07,-0.6136,-47.3561,76.96,87,10,7.05,clear sky,0.0,0
650,newport,GB,2022-05-27 04:16:20,51.5877,-2.9984,54.82,92,92,8.1,overcast clouds,0.0,0
651,apatou,GF,2022-05-27 04:18:07,5.155,-54.3472,72.48,99,100,2.13,overcast clouds,0.0,0
652,gap,FR,2022-05-27 04:18:08,44.6667,6.0,42.84,90,71,5.75,broken clouds,0.0,0
653,ibra,OM,2022-05-27 04:18:08,22.6906,58.5334,86.76,28,0,4.74,clear sky,0.0,0
654,pontianak,ID,2022-05-27 04:18:09,-0.0333,109.3333,87.78,66,20,6.91,few clouds,0.0,0
655,stutterheim,ZA,2022-05-27 04:18:09,-32.5708,27.424,46.96,96,5,3.24,clear sky,0.0,0
656,iroquois falls,CA,2022-05-27 04:18:09,48.7669,-80.6831,50.25,99,100,2.08,overcast clouds,0.0,0
657,okrika,NG,2022-05-27 04:18:10,4.7416,7.0849,75.67,90,100,3.36,overcast clouds,0.0,0
658,maraa,BR,2022-05-27 04:18:10,-1.8333,-65.3667,75.7,85,100,1.59,overcast clouds,0.0,0
659,ostrovnoy,RU,2022-05-27 04:18:11,68.0531,39.5131,36.45,97,100,21.94,overcast clouds,0.0,0
660,madison,US,2022-05-27 04:15:54,34.7334,-86.5667,66.4,89,0,6.91,clear sky,0.0,0
661,smolenka,RU,2022-05-27 04:18:11,52.1352,113.4974,55.47,50,40,22.37,light rain,0.0,0
662,nuuk,GL,2022-05-27 04:13:50,64.1835,-51.7216,30.81,93,75,10.36,broken clouds,0.0,0
